%time,field.robot_name,field.ALGOR,field.Stop_AND_Wait,field.W1,field.W2,field.time_step,field.time_horizon,field.sphere_radius,field.CRIT_DIST,field.DES_VEL,field.ROT_VEL,field.K_ROT_MAX,field.K_ROT_MIN,field.AZIMUTH_ERROR,field.robot_stuck,field.avoided_collisions,field.fatal_collisions,field.navigation_time,field.CA_time,field.distance_travelled,field.optimal_time,field.optimal_distance_travelled
"1,69693843737921E+018",robot0,1,0,1.0,0.5,1.0,20.0,3.0,6.0,0.5,0.449999988079,0.300000011921,0.15000000596,0.800000011921,0,2,0,63.5027160645,9.70130634308,34.0758209229,60.6256942749,30.3128471375
"1,69693845122999E+018",robot1,1,0,1.0,0.5,1.0,20.0,3.0,6.0,0.5,0.449999988079,0.300000011921,0.15000000596,0.800000011921,0,5,0,77.3469696045,15.9905958176,41.2753334045,60.773109436,30.386554718
"1,69693845350949E+018",robot2,1,0,1.0,0.5,1.0,20.0,3.0,6.0,0.5,0.449999988079,0.300000011921,0.15000000596,0.800000011921,0,3,0,79.6028671265,13.455945015,39.4801139832,58.6027565002,29.3013782501
"1,69693845914106E+018",robot3,1,0,1.0,0.5,1.0,20.0,3.0,6.0,0.5,0.449999988079,0.300000011921,0.15000000596,0.800000011921,0,2,0,85.3132553101,12.9520978928,50.8633117676,31.2087459564,15.6043729782
%time,field.robot_name,field.ALGOR,field.Stop_AND_Wait,field.W1,field.W2,field.time_step,field.time_horizon,field.sphere_radius,field.CRIT_DIST,field.DES_VEL,field.ROT_VEL,field.K_ROT_MAX,field.K_ROT_MIN,field.AZIMUTH_ERROR,field.robot_stuck,field.avoided_collisions,field.fatal_collisions,field.navigation_time,field.CA_time,field.distance_travelled,field.optimal_time,field.optimal_distance_travelled
"1,69693865237516E+018",robot0,1,0,1.0,2.5,1.0,20.0,3.0,6.0,0.5,0.449999988079,0.300000011921,0.15000000596,0.800000011921,0,4,0,71.8997344971,15.9979496002,35.7245254517,60.5977249146,30.2988624573
"1,69693865873141E+018",robot2,1,0,1.0,2.5,1.0,20.0,3.0,6.0,0.5,0.449999988079,0.300000011921,0.15000000596,0.800000011921,0,4,0,78.1993179321,13.0484361649,36.9795761108,58.9577217102,29.4788608551
"1,69693866979933E+018",robot3,1,0,1.0,2.5,1.0,20.0,3.0,6.0,0.5,0.449999988079,0.300000011921,0.15000000596,0.800000011921,0,3,0,89.303604126,13.7964878082,36.003112793,56.6405220032,28.3202610016
"1,69693867129721E+018",robot1,1,0,1.0,2.5,1.0,20.0,3.0,6.0,0.5,0.449999988079,0.300000011921,0.15000000596,0.800000011921,0,7,0,90.8370285034,22.4526615143,50.2686882019,49.3822898865,24.6911449432
%time,field.robot_name,field.ALGOR,field.Stop_AND_Wait,field.W1,field.W2,field.time_step,field.time_horizon,field.sphere_radius,field.CRIT_DIST,field.DES_VEL,field.ROT_VEL,field.K_ROT_MAX,field.K_ROT_MIN,field.AZIMUTH_ERROR,field.robot_stuck,field.avoided_collisions,field.fatal_collisions,field.navigation_time,field.CA_time,field.distance_travelled,field.optimal_time,field.optimal_distance_travelled
"1,6969388429409E+018",robot0,1,0,1.0,500.0,1.0,20.0,3.0,6.0,0.5,0.449999988079,0.300000011921,0.15000000596,0.800000011921,0,5,0,72.3518218994,9.48165988922,35.9549980164,60.6865921021,30.343296051
"1,69693886196755E+018",robot1,1,0,1.0,500.0,1.0,20.0,3.0,6.0,0.5,0.449999988079,0.300000011921,0.15000000596,0.800000011921,0,6,0,91.4207229614,19.4745864868,51.2673301697,49.2963943481,24.6481971741
"1,69693886282344E+018",robot2,1,0,1.0,500.0,1.0,20.0,3.0,6.0,0.5,0.449999988079,0.300000011921,0.15000000596,0.800000011921,0,6,0,92.253364563,17.472826004,42.6691436768,58.9422187805,29.4711093903
"1,6969388702477E+018",robot3,1,0,1.0,500.0,1.0,20.0,3.0,6.0,0.5,0.449999988079,0.300000011921,0.15000000596,0.800000011921,0,6,0,99.7009963989,15.9213819504,38.5400047302,56.8883285522,28.4441642761
%time,field.robot_name,field.ALGOR,field.Stop_AND_Wait,field.W1,field.W2,field.time_step,field.time_horizon,field.sphere_radius,field.CRIT_DIST,field.DES_VEL,field.ROT_VEL,field.K_ROT_MAX,field.K_ROT_MIN,field.AZIMUTH_ERROR,field.robot_stuck,field.avoided_collisions,field.fatal_collisions,field.navigation_time,field.CA_time,field.distance_travelled,field.optimal_time,field.optimal_distance_travelled
"1,69693905921362E+018",robot0,1,0,1.0,0.5,1.0,20.0,3.0,6.0,0.5,0.449999988079,0.300000011921,0.15000000596,0.600000023842,0,7,0,85.1000976562,22.0571937561,43.2298927307,60.5934715271,30.2967357635
"1,69693906406671E+018",robot2,1,0,1.0,0.5,1.0,20.0,3.0,6.0,0.5,0.449999988079,0.300000011921,0.15000000596,0.600000023842,0,3,0,89.900177002,21.2962818146,42.7475242615,58.9392738342,29.4696369171
"1,6969390697395E+018",robot1,1,0,1.0,0.5,1.0,20.0,3.0,6.0,0.5,0.449999988079,0.300000011921,0.15000000596,0.600000023842,0,10,0,95.6476211548,26.8568992615,49.175453186,60.4572639465,30.2286319733
"1,69693907413411E+018",robot3,1,0,1.0,0.5,1.0,20.0,3.0,6.0,0.5,0.449999988079,0.300000011921,0.15000000596,0.600000023842,0,6,0,100.044364929,18.2764549255,55.5394630432,31.2233181,15.61165905
%time,field.robot_name,field.ALGOR,field.Stop_AND_Wait,field.W1,field.W2,field.time_step,field.time_horizon,field.sphere_radius,field.CRIT_DIST,field.DES_VEL,field.ROT_VEL,field.K_ROT_MAX,field.K_ROT_MIN,field.AZIMUTH_ERROR,field.robot_stuck,field.avoided_collisions,field.fatal_collisions,field.navigation_time,field.CA_time,field.distance_travelled,field.optimal_time,field.optimal_distance_travelled
"1,69693926928373E+018",robot0,1,0,1.0,2.5,1.0,20.0,3.0,6.0,0.5,0.449999988079,0.300000011921,0.15000000596,0.600000023842,0,9,0,95.8493728638,26.1605529785,44.1268386841,60.5997581482,30.2998790741
"1,69693927408664E+018",robot1,1,0,1.0,2.5,1.0,20.0,3.0,6.0,0.5,0.449999988079,0.300000011921,0.15000000596,0.600000023842,0,9,0,100.70022583,28.2379722595,55.3437309265,49.1167030334,24.5583515167
"1,69693927902955E+018",robot2,1,0,1.0,2.5,1.0,20.0,3.0,6.0,0.5,0.449999988079,0.300000011921,0.15000000596,0.600000023842,0,8,0,105.598731995,25.8588428497,50.9730987549,58.8706245422,29.4353122711
"1,69693929463281E+018",robot3,1,0,1.0,2.5,1.0,20.0,3.0,6.0,0.5,0.449999988079,0.300000011921,0.15000000596,0.600000023842,0,10,0,121.200614929,30.342010498,43.7805480957,56.6000747681,28.300037384
%time,field.robot_name,field.ALGOR,field.Stop_AND_Wait,field.W1,field.W2,field.time_step,field.time_horizon,field.sphere_radius,field.CRIT_DIST,field.DES_VEL,field.ROT_VEL,field.K_ROT_MAX,field.K_ROT_MIN,field.AZIMUTH_ERROR,field.robot_stuck,field.avoided_collisions,field.fatal_collisions,field.navigation_time,field.CA_time,field.distance_travelled,field.optimal_time,field.optimal_distance_travelled
"1,69693954559586E+018",robot2,1,0,1.0,500.0,1.0,20.0,3.0,6.0,0.5,0.449999988079,0.300000011921,0.15000000596,0.600000023842,0,15,0,144.694335938,43.2519035339,63.7385139465,59.1760559082,29.5880279541
"1,69693955417855E+018",robot0,1,0,1.0,500.0,1.0,20.0,3.0,6.0,0.5,0.449999988079,0.300000011921,0.15000000596,0.600000023842,0,21,0,153.300674438,50.9605369568,66.9291992188,60.5640106201,30.2820053101
"1,69693955583094E+018",robot1,1,0,1.0,500.0,1.0,20.0,3.0,6.0,0.5,0.449999988079,0.300000011921,0.15000000596,0.600000023842,0,22,0,154.965026855,55.6524963379,65.3205108643,49.3732528687,24.6866264343
"1,69693956286691E+018",robot3,1,0,1.0,500.0,1.0,20.0,3.0,6.0,0.5,0.449999988079,0.300000011921,0.15000000596,0.600000023842,0,16,0,161.994308472,42.9877204895,50.5755271912,56.7815895081,28.390794754
%time,field.robot_name,field.ALGOR,field.Stop_AND_Wait,field.W1,field.W2,field.time_step,field.time_horizon,field.sphere_radius,field.CRIT_DIST,field.DES_VEL,field.ROT_VEL,field.K_ROT_MAX,field.K_ROT_MIN,field.AZIMUTH_ERROR,field.robot_stuck,field.avoided_collisions,field.fatal_collisions,field.navigation_time,field.CA_time,field.distance_travelled,field.optimal_time,field.optimal_distance_travelled
"1,69693975709616E+018",robot2,1,0,1.0,0.5,1.0,20.0,3.0,6.0,0.5,0.449999988079,0.300000011921,0.15000000596,0.40000000596,0,3,0,87.5960464478,14.3001260757,36.7244300842,58.7683830261,29.3841915131
"1,69693977272909E+018",robot0,1,0,1.0,0.5,1.0,20.0,3.0,6.0,0.5,0.449999988079,0.300000011921,0.15000000596,0.40000000596,0,9,0,103.295417786,32.7579307556,49.5544815063,60.571018219,30.2855091095
"1,69693977959145E+018",robot1,1,0,1.0,0.5,1.0,20.0,3.0,6.0,0.5,0.449999988079,0.300000011921,0.15000000596,0.40000000596,0,10,0,110.188331604,35.4071388245,62.3816947937,49.3099899292,24.6549949646
"1,69693978978739E+018",robot3,1,0,1.0,0.5,1.0,20.0,3.0,6.0,0.5,0.449999988079,0.300000011921,0.15000000596,0.40000000596,0,8,0,120.349334717,28.4057788849,44.1427459717,56.7228546143,28.3614273071
%time,field.robot_name,field.ALGOR,field.Stop_AND_Wait,field.W1,field.W2,field.time_step,field.time_horizon,field.sphere_radius,field.CRIT_DIST,field.DES_VEL,field.ROT_VEL,field.K_ROT_MAX,field.K_ROT_MIN,field.AZIMUTH_ERROR,field.robot_stuck,field.avoided_collisions,field.fatal_collisions,field.navigation_time,field.CA_time,field.distance_travelled,field.optimal_time,field.optimal_distance_travelled
"1,69693997752301E+018",robot2,1,0,1.0,2.5,1.0,20.0,3.0,6.0,0.5,0.449999988079,0.300000011921,0.15000000596,0.40000000596,0,5,0,89.6014328003,16.9606437683,41.222454071,59.1543045044,29.5771522522
"1,69694002029202E+018",robot3,1,0,1.0,2.5,1.0,20.0,3.0,6.0,0.5,0.449999988079,0.300000011921,0.15000000596,0.40000000596,0,11,0,132.348983765,33.2625579834,45.19298172,56.8503379822,28.4251689911
"1,69694002940171E+018",robot0,1,0,1.0,2.5,1.0,20.0,3.0,6.0,0.5,0.449999988079,0.300000011921,0.15000000596,0.40000000596,0,18,0,141.500961304,52.2079391479,64.1021575928,60.790977478,30.395488739
"1,69694003339711E+018",robot1,1,0,1.0,2.5,1.0,20.0,3.0,6.0,0.5,0.449999988079,0.300000011921,0.15000000596,0.40000000596,0,19,0,145.506866455,57.4967765808,72.7579269409,49.3087348938,24.6543674469
%time,field.robot_name,field.ALGOR,field.Stop_AND_Wait,field.W1,field.W2,field.time_step,field.time_horizon,field.sphere_radius,field.CRIT_DIST,field.DES_VEL,field.ROT_VEL,field.K_ROT_MAX,field.K_ROT_MIN,field.AZIMUTH_ERROR,field.robot_stuck,field.avoided_collisions,field.fatal_collisions,field.navigation_time,field.CA_time,field.distance_travelled,field.optimal_time,field.optimal_distance_travelled
"1,69694026231838E+018",robot0,1,0,1.0,500.0,1.0,20.0,3.0,6.0,0.5,0.449999988079,0.300000011921,0.15000000596,0.40000000596,0,13,0,121.949981689,34.729675293,54.5668754578,60.6007728577,30.3003864288
"1,69694026524827E+018",robot2,1,0,1.0,500.0,1.0,20.0,3.0,6.0,0.5,0.449999988079,0.300000011921,0.15000000596,0.40000000596,0,10,0,124.901283264,32.608089447,55.3557090759,58.9646720886,29.4823360443
"1,6969402661245E+018",robot1,1,0,1.0,500.0,1.0,20.0,3.0,6.0,0.5,0.449999988079,0.300000011921,0.15000000596,0.40000000596,0,22,0,125.807235718,39.2654724121,59.5495491028,49.2567901611,24.6283950806
"1,69694027610287E+018",robot3,1,0,1.0,500.0,1.0,20.0,3.0,6.0,0.5,0.449999988079,0.300000011921,0.15000000596,0.40000000596,0,16,0,135.693557739,31.6402645111,48.1238899231,57.2370071411,28.6185035706
%time,field.robot_name,field.ALGOR,field.Stop_AND_Wait,field.W1,field.W2,field.time_step,field.time_horizon,field.sphere_radius,field.CRIT_DIST,field.DES_VEL,field.ROT_VEL,field.K_ROT_MAX,field.K_ROT_MIN,field.AZIMUTH_ERROR,field.robot_stuck,field.avoided_collisions,field.fatal_collisions,field.navigation_time,field.CA_time,field.distance_travelled,field.optimal_time,field.optimal_distance_travelled
"1,69694045423919E+018",robot2,1,0,1.0,0.5,1.0,20.0,3.0,6.0,0.5,0.449999988079,0.300000011921,0.15000000596,0.20000000298,0,2,0,74.7993774414,11.0030021667,31.3954296112,58.626121521,29.3130607605
"1,69694047348671E+018",robot1,1,0,1.0,0.5,1.0,20.0,3.0,6.0,0.5,0.449999988079,0.300000011921,0.15000000596,0.20000000298,0,7,0,94.1025085449,24.6573200226,46.5575714111,49.2497291565,24.6248645782
"1,69694048596364E+018",robot3,1,0,1.0,0.5,1.0,20.0,3.0,6.0,0.5,0.449999988079,0.300000011921,0.15000000596,0.20000000298,0,4,0,106.551635742,24.6188278198,43.8074035645,56.5980796814,28.2990398407
"1,6969404899706E+018",robot0,1,0,1.0,0.5,1.0,20.0,3.0,6.0,0.5,0.449999988079,0.300000011921,0.15000000596,0.20000000298,0,7,0,110.553222656,30.8794517517,43.5663108826,60.5851898193,30.2925949097
%time,field.robot_name,field.ALGOR,field.Stop_AND_Wait,field.W1,field.W2,field.time_step,field.time_horizon,field.sphere_radius,field.CRIT_DIST,field.DES_VEL,field.ROT_VEL,field.K_ROT_MAX,field.K_ROT_MIN,field.AZIMUTH_ERROR,field.robot_stuck,field.avoided_collisions,field.fatal_collisions,field.navigation_time,field.CA_time,field.distance_travelled,field.optimal_time,field.optimal_distance_travelled
"1,69694066101409E+018",robot2,1,0,1.0,2.5,1.0,20.0,3.0,6.0,0.5,0.449999988079,0.300000011921,0.15000000596,0.20000000298,0,2,0,73.0031356812,6.21870803833,33.6520500183,58.8037261963,29.4018630981
"1,69694071894779E+018",robot3,1,0,1.0,2.5,1.0,20.0,3.0,6.0,0.5,0.449999988079,0.300000011921,0.15000000596,0.20000000298,0,10,0,130.947967529,33.8363571167,46.2542648315,56.8579177856,28.4289588928
"1,69694072161062E+018",robot0,1,0,1.0,2.5,1.0,20.0,3.0,6.0,0.5,0.449999988079,0.300000011921,0.15000000596,0.20000000298,0,10,0,133.59815979,45.9170417786,58.9223747253,60.7851028442,30.3925514221
"1,69694072213265E+018",robot1,1,0,1.0,2.5,1.0,20.0,3.0,6.0,0.5,0.449999988079,0.300000011921,0.15000000596,0.20000000298,0,10,0,134.135284424,45.0134048462,67.2773513794,49.324256897,24.6621284485
%time,field.robot_name,field.ALGOR,field.Stop_AND_Wait,field.W1,field.W2,field.time_step,field.time_horizon,field.sphere_radius,field.CRIT_DIST,field.DES_VEL,field.ROT_VEL,field.K_ROT_MAX,field.K_ROT_MIN,field.AZIMUTH_ERROR,field.robot_stuck,field.avoided_collisions,field.fatal_collisions,field.navigation_time,field.CA_time,field.distance_travelled,field.optimal_time,field.optimal_distance_travelled
"1,69694090615209E+018",robot2,1,0,1.0,500.0,1.0,20.0,3.0,6.0,0.5,0.449999988079,0.300000011921,0.15000000596,0.20000000298,0,3,0,85.4974746704,9.3027305603,34.6994171143,59.0175018311,29.5087509155
"1,69694120498797E+018",robot0,1,0,1.0,500.0,1.0,20.0,3.0,6.0,0.5,0.449999988079,0.300000011921,0.15000000596,0.20000000298,0,58,0,384.356536865,168.284561157,149.428268433,60.6200256348,30.3100128174
"1,69694126416038E+018",robot1,1,0,1.0,500.0,1.0,20.0,3.0,6.0,0.5,0.449999988079,0.300000011921,0.15000000596,0.20000000298,0,71,0,443.556793213,194.880157471,183.843399048,49.3699378967,24.6849689484
"1,69694134284632E+018",robot3,1,0,1.0,500.0,1.0,20.0,3.0,6.0,0.5,0.449999988079,0.300000011921,0.15000000596,0.20000000298,0,82,0,522.20098877,196.785293579,125.770324707,56.6398010254,28.3199005127
%time,field.robot_name,field.ALGOR,field.Stop_AND_Wait,field.W1,field.W2,field.time_step,field.time_horizon,field.sphere_radius,field.CRIT_DIST,field.DES_VEL,field.ROT_VEL,field.K_ROT_MAX,field.K_ROT_MIN,field.AZIMUTH_ERROR,field.robot_stuck,field.avoided_collisions,field.fatal_collisions,field.navigation_time,field.CA_time,field.distance_travelled,field.optimal_time,field.optimal_distance_travelled
"1,69694156844564E+018",robot0,1,0,1.0,0.5,1.0,20.0,3.0,7.0,0.5,0.449999988079,0.300000011921,0.15000000596,0.800000011921,0,5,0,83.8538284302,20.399723053,42.8937644958,60.5971298218,30.2985649109
"1,6969415826646E+018",robot2,1,0,1.0,0.5,1.0,20.0,3.0,7.0,0.5,0.449999988079,0.300000011921,0.15000000596,0.800000011921,0,6,0,98.0987243652,28.8410797119,46.798412323,59.0384788513,29.5192394257
"1,69694158277435E+018",robot1,1,0,1.0,0.5,1.0,20.0,3.0,7.0,0.5,0.449999988079,0.300000011921,0.15000000596,0.800000011921,0,8,0,98.1508331299,32.6202392578,47.1154975891,60.306350708,30.153175354
"1,69694158572934E+018",robot3,1,0,1.0,0.5,1.0,20.0,3.0,7.0,0.5,0.449999988079,0.300000011921,0.15000000596,0.800000011921,0,6,0,101.163322449,20.8214015961,55.9072875977,31.6761894226,15.8380947113
%time,field.robot_name,field.ALGOR,field.Stop_AND_Wait,field.W1,field.W2,field.time_step,field.time_horizon,field.sphere_radius,field.CRIT_DIST,field.DES_VEL,field.ROT_VEL,field.K_ROT_MAX,field.K_ROT_MIN,field.AZIMUTH_ERROR,field.robot_stuck,field.avoided_collisions,field.fatal_collisions,field.navigation_time,field.CA_time,field.distance_travelled,field.optimal_time,field.optimal_distance_travelled
"1,6969417841346E+018",robot2,1,0,1.0,2.5,1.0,20.0,3.0,7.0,0.5,0.449999988079,0.300000011921,0.15000000596,0.800000011921,0,7,0,93.9024963379,22.758108139,43.2121086121,58.6826286316,29.3413143158
"1,69694178542179E+018",robot0,1,0,1.0,2.5,1.0,20.0,3.0,7.0,0.5,0.449999988079,0.300000011921,0.15000000596,0.800000011921,0,5,0,95.2004623413,23.8069877625,47.659740448,60.4173355103,30.2086677551
"1,69694178696134E+018",robot1,1,0,1.0,2.5,1.0,20.0,3.0,7.0,0.5,0.449999988079,0.300000011921,0.15000000596,0.800000011921,0,11,0,96.8007507324,30.0632553101,44.235824585,60.4524765015,30.2262382507
"1,69694179820393E+018",robot3,1,0,1.0,2.5,1.0,20.0,3.0,7.0,0.5,0.449999988079,0.300000011921,0.15000000596,0.800000011921,0,7,0,108.055412292,20.7544631958,57.3897094727,31.578458786,15.789229393
%time,field.robot_name,field.ALGOR,field.Stop_AND_Wait,field.W1,field.W2,field.time_step,field.time_horizon,field.sphere_radius,field.CRIT_DIST,field.DES_VEL,field.ROT_VEL,field.K_ROT_MAX,field.K_ROT_MIN,field.AZIMUTH_ERROR,field.robot_stuck,field.avoided_collisions,field.fatal_collisions,field.navigation_time,field.CA_time,field.distance_travelled,field.optimal_time,field.optimal_distance_travelled
"1,69694203078478E+018",robot2,1,0,1.0,500.0,1.0,20.0,3.0,7.0,0.5,0.449999988079,0.300000011921,0.15000000596,0.800000011921,0,10,0,125.099243164,33.6066741943,56.5121040344,58.9231452942,29.4615726471
"1,69694205345425E+018",robot1,1,0,1.0,500.0,1.0,20.0,3.0,7.0,0.5,0.449999988079,0.300000011921,0.15000000596,0.800000011921,0,28,0,147.799865723,54.6100158691,63.2109489441,60.5684623718,30.2842311859
"1,69694206093564E+018",robot0,1,0,1.0,500.0,1.0,20.0,3.0,7.0,0.5,0.449999988079,0.300000011921,0.15000000596,0.800000011921,0,18,0,155.201385498,51.4600486755,68.5283737183,60.609336853,30.3046684265
"1,6969420654966E+018",robot3,1,0,1.0,500.0,1.0,20.0,3.0,7.0,0.5,0.449999988079,0.300000011921,0.15000000596,0.800000011921,0,20,0,159.851074219,41.5577163696,67.414894104,31.1969738007,15.5984869003
%time,field.robot_name,field.ALGOR,field.Stop_AND_Wait,field.W1,field.W2,field.time_step,field.time_horizon,field.sphere_radius,field.CRIT_DIST,field.DES_VEL,field.ROT_VEL,field.K_ROT_MAX,field.K_ROT_MIN,field.AZIMUTH_ERROR,field.robot_stuck,field.avoided_collisions,field.fatal_collisions,field.navigation_time,field.CA_time,field.distance_travelled,field.optimal_time,field.optimal_distance_travelled
"1,69694226800834E+018",robot0,1,0,1.0,0.5,1.0,20.0,3.0,7.0,0.5,0.449999988079,0.300000011921,0.15000000596,0.600000023842,0,8,0,90.5514450073,26.0597362518,44.3739242554,60.7227630615,30.3613815308
"1,69694227127359E+018",robot2,1,0,1.0,0.5,1.0,20.0,3.0,7.0,0.5,0.449999988079,0.300000011921,0.15000000596,0.600000023842,0,13,0,93.8017501831,34.3474731445,43.6166534424,59.0705909729,29.5352954865
"1,69694227772976E+018",robot3,1,0,1.0,0.5,1.0,20.0,3.0,7.0,0.5,0.449999988079,0.300000011921,0.15000000596,0.600000023842,0,8,0,100.300064087,19.1437416077,40.749256134,57.0522842407,28.5261421204
"1,69694229005546E+018",robot1,1,0,1.0,0.5,1.0,20.0,3.0,7.0,0.5,0.449999988079,0.300000011921,0.15000000596,0.600000023842,0,12,0,112.676925659,36.9338989258,64.7618789673,49.3289718628,24.6644859314
%time,field.robot_name,field.ALGOR,field.Stop_AND_Wait,field.W1,field.W2,field.time_step,field.time_horizon,field.sphere_radius,field.CRIT_DIST,field.DES_VEL,field.ROT_VEL,field.K_ROT_MAX,field.K_ROT_MIN,field.AZIMUTH_ERROR,field.robot_stuck,field.avoided_collisions,field.fatal_collisions,field.navigation_time,field.CA_time,field.distance_travelled,field.optimal_time,field.optimal_distance_travelled
"1,69694250044096E+018",robot0,1,0,1.0,2.5,1.0,20.0,3.0,7.0,0.5,0.449999988079,0.300000011921,0.15000000596,0.600000023842,0,9,0,102.300643921,27.8039188385,49.9199142456,60.6478881836,30.3239440918
"1,69694250653604E+018",robot1,1,0,1.0,2.5,1.0,20.0,3.0,7.0,0.5,0.449999988079,0.300000011921,0.15000000596,0.600000023842,0,14,0,108.408119202,36.6035232544,57.2807579041,49.2170639038,24.6085319519
"1,69694251457718E+018",robot2,1,0,1.0,2.5,1.0,20.0,3.0,7.0,0.5,0.449999988079,0.300000011921,0.15000000596,0.600000023842,0,10,0,116.448577881,33.4976577759,53.9975204468,59.2207489014,29.6103744507
"1,6969425188765E+018",robot3,1,0,1.0,2.5,1.0,20.0,3.0,7.0,0.5,0.449999988079,0.300000011921,0.15000000596,0.600000023842,0,11,0,120.702232361,27.4594421387,44.5465660095,57.1193962097,28.5596981049
%time,field.robot_name,field.ALGOR,field.Stop_AND_Wait,field.W1,field.W2,field.time_step,field.time_horizon,field.sphere_radius,field.CRIT_DIST,field.DES_VEL,field.ROT_VEL,field.K_ROT_MAX,field.K_ROT_MIN,field.AZIMUTH_ERROR,field.robot_stuck,field.avoided_collisions,field.fatal_collisions,field.navigation_time,field.CA_time,field.distance_travelled,field.optimal_time,field.optimal_distance_travelled
"1,69694277164476E+018",robot2,1,0,1.0,500.0,1.0,20.0,3.0,7.0,0.5,0.449999988079,0.300000011921,0.15000000596,0.600000023842,0,16,0,152.499389648,47.0902671814,65.9605865479,58.8749198914,29.4374599457
"1,69694278754697E+018",robot1,1,0,1.0,500.0,1.0,20.0,3.0,7.0,0.5,0.449999988079,0.300000011921,0.15000000596,0.600000023842,0,36,0,168.453598022,64.2057952881,62.4657287598,60.848197937,30.4240989685
"1,69694279041598E+018",robot0,1,0,1.0,500.0,1.0,20.0,3.0,7.0,0.5,0.449999988079,0.300000011921,0.15000000596,0.600000023842,0,23,0,171.350280762,61.9005813599,74.5794677734,60.9077644348,30.4538822174
"1,69694281108814E+018",robot3,1,0,1.0,500.0,1.0,20.0,3.0,7.0,0.5,0.449999988079,0.300000011921,0.15000000596,0.600000023842,0,26,0,192.033081055,54.8932380676,74.1290512085,30.9803771973,15.4901885986
%time,field.robot_name,field.ALGOR,field.Stop_AND_Wait,field.W1,field.W2,field.time_step,field.time_horizon,field.sphere_radius,field.CRIT_DIST,field.DES_VEL,field.ROT_VEL,field.K_ROT_MAX,field.K_ROT_MIN,field.AZIMUTH_ERROR,field.robot_stuck,field.avoided_collisions,field.fatal_collisions,field.navigation_time,field.CA_time,field.distance_travelled,field.optimal_time,field.optimal_distance_travelled
"1,69694304033472E+018",robot2,1,0,1.0,0.5,1.0,20.0,3.0,7.0,0.5,0.449999988079,0.300000011921,0.15000000596,0.40000000596,0,5,0,97.5511474609,21.3504371643,40.6693382263,59.0545005798,29.5272502899
"1,69694304644794E+018",robot3,1,0,1.0,0.5,1.0,20.0,3.0,7.0,0.5,0.449999988079,0.300000011921,0.15000000596,0.40000000596,0,6,0,103.698249817,21.1966114044,40.6075973511,56.8943824768,28.4471912384
"1,69694305814137E+018",robot1,1,0,1.0,0.5,1.0,20.0,3.0,7.0,0.5,0.449999988079,0.300000011921,0.15000000596,0.40000000596,0,12,0,115.402252197,41.36195755,63.3218193054,49.2929344177,24.6464672089
"1,69694305914723E+018",robot0,1,0,1.0,0.5,1.0,20.0,3.0,7.0,0.5,0.449999988079,0.300000011921,0.15000000596,0.40000000596,0,11,0,116.40272522,39.7255630493,53.5976486206,60.5017929077,30.2508964539
%time,field.robot_name,field.ALGOR,field.Stop_AND_Wait,field.W1,field.W2,field.time_step,field.time_horizon,field.sphere_radius,field.CRIT_DIST,field.DES_VEL,field.ROT_VEL,field.K_ROT_MAX,field.K_ROT_MIN,field.AZIMUTH_ERROR,field.robot_stuck,field.avoided_collisions,field.fatal_collisions,field.navigation_time,field.CA_time,field.distance_travelled,field.optimal_time,field.optimal_distance_travelled
"1,69694332723544E+018",robot2,1,0,1.0,2.5,1.0,20.0,3.0,7.0,0.5,0.449999988079,0.300000011921,0.15000000596,0.40000000596,0,28,0,169.295959473,65.0838775635,76.0895690918,58.8637123108,29.4318561554
"1,69694333402286E+018",robot0,1,0,1.0,2.5,1.0,20.0,3.0,7.0,0.5,0.449999988079,0.300000011921,0.15000000596,0.40000000596,0,34,0,176.052841187,73.0105209351,80.2701873779,60.6809501648,30.3404750824
"1,69694333932376E+018",robot3,1,0,1.0,2.5,1.0,20.0,3.0,7.0,0.5,0.449999988079,0.300000011921,0.15000000596,0.40000000596,0,27,0,181.350036621,54.8333435059,69.4675369263,56.410987854,28.205493927
"1,69694334109638E+018",robot1,1,0,1.0,2.5,1.0,20.0,3.0,7.0,0.5,0.449999988079,0.300000011921,0.15000000596,0.40000000596,0,35,0,183.186187744,72.2228088379,89.2537384033,49.3180046082,24.6590023041
%time,field.robot_name,field.ALGOR,field.Stop_AND_Wait,field.W1,field.W2,field.time_step,field.time_horizon,field.sphere_radius,field.CRIT_DIST,field.DES_VEL,field.ROT_VEL,field.K_ROT_MAX,field.K_ROT_MIN,field.AZIMUTH_ERROR,field.robot_stuck,field.avoided_collisions,field.fatal_collisions,field.navigation_time,field.CA_time,field.distance_travelled,field.optimal_time,field.optimal_distance_travelled
"1,69694403153682E+018",robot2,1,0,1.0,0.5,1.0,20.0,3.0,7.0,0.5,0.449999988079,0.300000011921,0.15000000596,0.20000000298,0,3,0,81.5994262695,12.5459518433,33.8935852051,58.5639915466,29.2819957733
"1,69694415130056E+018",robot3,1,0,1.0,0.5,1.0,20.0,3.0,7.0,0.5,0.449999988079,0.300000011921,0.15000000596,0.20000000298,0,18,0,201.400878906,73.875289917,80.0821304321,30.6659641266,15.3329820633
"1,69694415135641E+018",robot1,1,0,1.0,0.5,1.0,20.0,3.0,7.0,0.5,0.449999988079,0.300000011921,0.15000000596,0.20000000298,0,16,0,201.450469971,92.9116744995,77.7649078369,60.6160964966,30.3080482483
"1,69694415745221E+018",robot0,1,0,1.0,0.5,1.0,20.0,3.0,7.0,0.5,0.449999988079,0.300000011921,0.15000000596,0.20000000298,0,17,0,207.501144409,90.6512680054,77.6378707886,60.9572219849,30.4786109924
%time,field.robot_name,field.ALGOR,field.Stop_AND_Wait,field.W1,field.W2,field.time_step,field.time_horizon,field.sphere_radius,field.CRIT_DIST,field.DES_VEL,field.ROT_VEL,field.K_ROT_MAX,field.K_ROT_MIN,field.AZIMUTH_ERROR,field.robot_stuck,field.avoided_collisions,field.fatal_collisions,field.navigation_time,field.CA_time,field.distance_travelled,field.optimal_time,field.optimal_distance_travelled
"1,69694436221347E+018",robot2,1,0,1.0,2.5,1.0,20.0,3.0,7.0,0.5,0.449999988079,0.300000011921,0.15000000596,0.20000000298,0,4,0,86.8479309082,14.0305252075,35.460319519,59.1057548523,29.5528774261
"1,69694440391979E+018",robot3,1,0,1.0,2.5,1.0,20.0,3.0,7.0,0.5,0.449999988079,0.300000011921,0.15000000596,0.20000000298,0,9,0,128.597076416,31.8252601624,46.2350997925,56.7430686951,28.3715343475
"1,69694440637212E+018",robot0,1,0,1.0,2.5,1.0,20.0,3.0,7.0,0.5,0.449999988079,0.300000011921,0.15000000596,0.20000000298,0,11,0,130.999465942,44.4279251099,56.4851341248,60.6040992737,30.3020496368
"1,69694440825153E+018",robot1,1,0,1.0,2.5,1.0,20.0,3.0,7.0,0.5,0.449999988079,0.300000011921,0.15000000596,0.20000000298,0,13,0,132.933883667,44.6494598389,65.9142150879,49.346950531,24.6734752655
%time,field.robot_name,field.ALGOR,field.Stop_AND_Wait,field.W1,field.W2,field.time_step,field.time_horizon,field.sphere_radius,field.CRIT_DIST,field.DES_VEL,field.ROT_VEL,field.K_ROT_MAX,field.K_ROT_MIN,field.AZIMUTH_ERROR,field.robot_stuck,field.avoided_collisions,field.fatal_collisions,field.navigation_time,field.CA_time,field.distance_travelled,field.optimal_time,field.optimal_distance_travelled
"1,69694458408384E+018",robot2,1,0,1.0,500.0,1.0,20.0,3.0,7.0,0.5,0.449999988079,0.300000011921,0.15000000596,0.20000000298,0,3,0,83.6522750854,11.8013219833,34.2499504089,58.7561073303,29.3780536652
"1,69694468518452E+018",robot1,1,0,1.0,500.0,1.0,20.0,3.0,7.0,0.5,0.449999988079,0.300000011921,0.15000000596,0.20000000298,0,22,0,184.801147461,68.8699264526,78.4015274048,49.2468338013,24.6234169006
"1,69694468776899E+018",robot0,1,0,1.0,500.0,1.0,20.0,3.0,7.0,0.5,0.449999988079,0.300000011921,0.15000000596,0.20000000298,0,22,0,187.344024658,71.2352981567,70.5798721313,60.4898910522,30.2449455261
"1,6969446954704E+018",robot3,1,0,1.0,500.0,1.0,20.0,3.0,7.0,0.5,0.449999988079,0.300000011921,0.15000000596,0.20000000298,0,21,0,195.049194336,56.9432907104,59.6914100647,56.8603172302,28.4301586151
%time,field.robot_name,field.ALGOR,field.Stop_AND_Wait,field.W1,field.W2,field.time_step,field.time_horizon,field.sphere_radius,field.CRIT_DIST,field.DES_VEL,field.ROT_VEL,field.K_ROT_MAX,field.K_ROT_MIN,field.AZIMUTH_ERROR,field.robot_stuck,field.avoided_collisions,field.fatal_collisions,field.navigation_time,field.CA_time,field.distance_travelled,field.optimal_time,field.optimal_distance_travelled
"1,6969449102131E+018",robot0,1,0,1.0,0.5,1.0,20.0,3.0,10.0,0.5,0.449999988079,0.300000011921,0.15000000596,0.800000011921,0,13,0,104.753967285,48.4611549377,51.9677352905,60.5824775696,30.2912387848
"1,69694494280826E+018",robot3,1,0,1.0,0.5,1.0,20.0,3.0,10.0,0.5,0.449999988079,0.300000011921,0.15000000596,0.800000011921,0,14,0,137.351150513,40.1972961426,50.58020401,57.1354103088,28.5677051544
"1,69694494313714E+018",robot2,1,0,1.0,0.5,1.0,20.0,3.0,10.0,0.5,0.449999988079,0.300000011921,0.15000000596,0.800000011921,0,12,0,137.697662354,49.5366210938,65.3115844727,59.5235710144,29.7617855072
"1,69694495317068E+018",robot1,1,0,1.0,0.5,1.0,20.0,3.0,10.0,0.5,0.449999988079,0.300000011921,0.15000000596,0.800000011921,0,18,0,147.729660034,64.0402526855,80.7463226318,49.3165054321,24.6582527161
%time,field.robot_name,field.ALGOR,field.Stop_AND_Wait,field.W1,field.W2,field.time_step,field.time_horizon,field.sphere_radius,field.CRIT_DIST,field.DES_VEL,field.ROT_VEL,field.K_ROT_MAX,field.K_ROT_MIN,field.AZIMUTH_ERROR,field.robot_stuck,field.avoided_collisions,field.fatal_collisions,field.navigation_time,field.CA_time,field.distance_travelled,field.optimal_time,field.optimal_distance_travelled
"1,69694524279519E+018",robot0,1,0,1.0,2.5,1.0,20.0,3.0,10.0,0.5,0.449999988079,0.300000011921,0.15000000596,0.800000011921,0,29,0,187.299789429,80.0057754517,85.7465667725,60.7186584473,30.3593292236
"1,69694525455204E+018",robot1,1,0,1.0,2.5,1.0,20.0,3.0,10.0,0.5,0.449999988079,0.300000011921,0.15000000596,0.800000011921,0,37,0,199.047729492,91.3499755859,90.6748809814,60.5819206238,30.2909603119
"1,69694528681754E+018",robot2,1,0,1.0,2.5,1.0,20.0,3.0,10.0,0.5,0.449999988079,0.300000011921,0.15000000596,0.800000011921,0,27,0,231.250579834,98.6805801392,108.380752563,58.9119682312,29.4559841156
"1,6969453161442E+018",robot3,1,0,1.0,2.5,1.0,20.0,3.0,10.0,0.5,0.449999988079,0.300000011921,0.15000000596,0.800000011921,0,33,0,260.65512085,95.2722320557,107.515945435,31.1799182892,15.5899591446
%time,field.robot_name,field.ALGOR,field.Stop_AND_Wait,field.W1,field.W2,field.time_step,field.time_horizon,field.sphere_radius,field.CRIT_DIST,field.DES_VEL,field.ROT_VEL,field.K_ROT_MAX,field.K_ROT_MIN,field.AZIMUTH_ERROR,field.robot_stuck,field.avoided_collisions,field.fatal_collisions,field.navigation_time,field.CA_time,field.distance_travelled,field.optimal_time,field.optimal_distance_travelled
"1,69694589870562E+018",robot1,1,0,1.0,500.0,1.0,20.0,3.0,10.0,0.5,0.449999988079,0.300000011921,0.15000000596,0.800000011921,0,83,0,459.093261719,220.301528931,198.829803467,49.2476768494,24.6238384247
"1,69694593728014E+018",robot2,1,0,1.0,500.0,1.0,20.0,3.0,10.0,0.5,0.449999988079,0.300000011921,0.15000000596,0.800000011921,0,111,0,497.646606445,218.339370728,206.667007446,59.2051315308,29.6025657654
"1,69694598775072E+018",robot0,1,0,1.0,500.0,1.0,20.0,3.0,10.0,0.5,0.449999988079,0.300000011921,0.15000000596,0.800000011921,0,104,0,548.051086426,250.70703125,223.941543579,60.6990203857,30.3495101929
"1,69694600578446E+018",robot3,1,0,1.0,500.0,1.0,20.0,3.0,10.0,0.5,0.449999988079,0.300000011921,0.15000000596,0.800000011921,1,115,0,566.147155762,251.135925293,214.484420776,56.6064682007,28.3032341003
%time,field.robot_name,field.ALGOR,field.Stop_AND_Wait,field.W1,field.W2,field.time_step,field.time_horizon,field.sphere_radius,field.CRIT_DIST,field.DES_VEL,field.ROT_VEL,field.K_ROT_MAX,field.K_ROT_MIN,field.AZIMUTH_ERROR,field.robot_stuck,field.avoided_collisions,field.fatal_collisions,field.navigation_time,field.CA_time,field.distance_travelled,field.optimal_time,field.optimal_distance_travelled
"1,69694634721395E+018",robot0,1,0,1.0,0.5,1.0,20.0,3.0,10.0,0.5,0.449999988079,0.300000011921,0.15000000596,0.600000023842,0,38,0,196.750061035,96.2344970703,88.0652389526,60.6568832397,30.3284416199
"1,69694635872757E+018",robot1,1,0,1.0,0.5,1.0,20.0,3.0,10.0,0.5,0.449999988079,0.300000011921,0.15000000596,0.600000023842,0,31,0,208.291442871,103.760932922,102.63633728,49.31848526,24.65924263
"1,69694636664918E+018",robot2,1,0,1.0,0.5,1.0,20.0,3.0,10.0,0.5,0.449999988079,0.300000011921,0.15000000596,0.600000023842,0,38,0,216.197647095,105.966758728,100.83441925,58.989616394,29.494808197
"1,69694640158932E+018",robot3,1,0,1.0,0.5,1.0,20.0,3.0,10.0,0.5,0.449999988079,0.300000011921,0.15000000596,0.600000023842,0,31,0,251.149139404,105.650970459,95.3317108154,56.755443573,28.3777217865
%time,field.robot_name,field.ALGOR,field.Stop_AND_Wait,field.W1,field.W2,field.time_step,field.time_horizon,field.sphere_radius,field.CRIT_DIST,field.DES_VEL,field.ROT_VEL,field.K_ROT_MAX,field.K_ROT_MIN,field.AZIMUTH_ERROR,field.robot_stuck,field.avoided_collisions,field.fatal_collisions,field.navigation_time,field.CA_time,field.distance_travelled,field.optimal_time,field.optimal_distance_travelled
"1,69694689653354E+018",robot1,1,0,1.0,2.5,1.0,20.0,3.0,10.0,0.5,0.449999988079,0.300000011921,0.15000000596,0.600000023842,0,70,0,386.973236084,206.870941162,169.54800415,49.3175506592,24.6587753296
"1,69694689885375E+018",robot2,1,0,1.0,2.5,1.0,20.0,3.0,10.0,0.5,0.449999988079,0.300000011921,0.15000000596,0.600000023842,0,72,0,389.246398926,192.808929443,171.320861816,59.0746154785,29.5373077393
"1,69694691371192E+018",robot0,1,0,1.0,2.5,1.0,20.0,3.0,10.0,0.5,0.449999988079,0.300000011921,0.15000000596,0.600000023842,0,77,0,404.14944458,204.509902954,179.798522949,60.7015380859,30.350769043
"1,69694694984516E+018",robot3,1,0,1.0,2.5,1.0,20.0,3.0,10.0,0.5,0.449999988079,0.300000011921,0.15000000596,0.600000023842,0,67,0,440.200164795,187.035522461,165.188980103,56.5636787415,28.2818393707
%time,field.robot_name,field.ALGOR,field.Stop_AND_Wait,field.W1,field.W2,field.time_step,field.time_horizon,field.sphere_radius,field.CRIT_DIST,field.DES_VEL,field.ROT_VEL,field.K_ROT_MAX,field.K_ROT_MIN,field.AZIMUTH_ERROR,field.robot_stuck,field.avoided_collisions,field.fatal_collisions,field.navigation_time,field.CA_time,field.distance_travelled,field.optimal_time,field.optimal_distance_travelled
"1,69694736677487E+018",robot2,1,0,1.0,500.0,1.0,20.0,3.0,10.0,0.5,0.449999988079,0.300000011921,0.15000000596,0.600000023842,0,38,0,281.343719482,111.031021118,118.818786621,59.253944397,29.6269721985
"1,69694741264125E+018",robot3,1,0,1.0,500.0,1.0,20.0,3.0,10.0,0.5,0.449999988079,0.300000011921,0.15000000596,0.600000023842,0,62,0,327.199035645,113.689331055,105.003501892,57.2470779419,28.6235389709
"1,69694752113209E+018",robot0,1,0,1.0,500.0,1.0,20.0,3.0,10.0,0.5,0.449999988079,0.300000011921,0.15000000596,0.600000023842,0,58,0,435.652770996,193.191268921,176.623275757,60.3984832764,30.1992416382
"1,69694752355539E+018",robot1,1,0,1.0,500.0,1.0,20.0,3.0,10.0,0.5,0.449999988079,0.300000011921,0.15000000596,0.600000023842,0,80,0,438.152893066,197.47517395,184.257827759,49.2445373535,24.6222686768
%time,field.robot_name,field.ALGOR,field.Stop_AND_Wait,field.W1,field.W2,field.time_step,field.time_horizon,field.sphere_radius,field.CRIT_DIST,field.DES_VEL,field.ROT_VEL,field.K_ROT_MAX,field.K_ROT_MIN,field.AZIMUTH_ERROR,field.robot_stuck,field.avoided_collisions,field.fatal_collisions,field.navigation_time,field.CA_time,field.distance_travelled,field.optimal_time,field.optimal_distance_travelled
"1,69694786253855E+018",robot2,1,0,1.0,0.5,1.0,20.0,3.0,10.0,0.5,0.449999988079,0.300000011921,0.15000000596,0.40000000596,0,33,0,200.247894287,90.5660629272,92.1034240723,59.2849578857,29.6424789429
"1,69694787172079E+018",robot3,1,0,1.0,0.5,1.0,20.0,3.0,10.0,0.5,0.449999988079,0.300000011921,0.15000000596,0.40000000596,0,30,0,209.499664307,77.0160064697,81.0123825073,56.9976158142,28.4988079071
"1,69694788438643E+018",robot0,1,0,1.0,0.5,1.0,20.0,3.0,10.0,0.5,0.449999988079,0.300000011921,0.15000000596,0.40000000596,0,39,0,222.098068237,115.268241882,103.340423584,60.7289428711,30.3644714355
"1,69694789000973E+018",robot1,1,0,1.0,0.5,1.0,20.0,3.0,10.0,0.5,0.449999988079,0.300000011921,0.15000000596,0.40000000596,0,36,0,227.807037354,115.460624695,110.708992004,49.3322944641,24.6661472321
%time,field.robot_name,field.ALGOR,field.Stop_AND_Wait,field.W1,field.W2,field.time_step,field.time_horizon,field.sphere_radius,field.CRIT_DIST,field.DES_VEL,field.ROT_VEL,field.K_ROT_MAX,field.K_ROT_MIN,field.AZIMUTH_ERROR,field.robot_stuck,field.avoided_collisions,field.fatal_collisions,field.navigation_time,field.CA_time,field.distance_travelled,field.optimal_time,field.optimal_distance_travelled
"1,69694831254705E+018",robot3,1,0,1.0,2.5,1.0,20.0,3.0,10.0,0.5,0.449999988079,0.300000011921,0.15000000596,0.40000000596,1,61,0,310.684967041,159.280197144,143.925338745,31.0646190643,15.5323095322
"1,69694848525507E+018",robot2,1,0,1.0,2.5,1.0,20.0,3.0,10.0,0.5,0.449999988079,0.300000011921,0.15000000596,0.40000000596,0,99,0,483.349975586,244.420150757,211.050796509,58.9519615173,29.4759807587
"1,69694853594905E+018",robot0,1,0,1.0,2.5,1.0,20.0,3.0,10.0,0.5,0.449999988079,0.300000011921,0.15000000596,0.40000000596,0,116,0,534.048522949,278.611450195,233.411300659,60.7295722961,30.3647861481
"1,69694853667005E+018",robot1,1,0,1.0,2.5,1.0,20.0,3.0,10.0,0.5,0.449999988079,0.300000011921,0.15000000596,0.40000000596,0,101,0,534.799804688,287.002929688,221.357223511,60.4826278687,30.2413139343
%time,field.robot_name,field.ALGOR,field.Stop_AND_Wait,field.W1,field.W2,field.time_step,field.time_horizon,field.sphere_radius,field.CRIT_DIST,field.DES_VEL,field.ROT_VEL,field.K_ROT_MAX,field.K_ROT_MIN,field.AZIMUTH_ERROR,field.robot_stuck,field.avoided_collisions,field.fatal_collisions,field.navigation_time,field.CA_time,field.distance_travelled,field.optimal_time,field.optimal_distance_travelled
"1,69694898676977E+018",robot3,1,0,1.0,500.0,1.0,20.0,3.0,10.0,0.5,0.449999988079,0.300000011921,0.15000000596,0.40000000596,1,68,0,311.293029785,135.585281372,123.426338196,31.1234798431,15.5617399216
"1,69694903796931E+018",robot2,1,0,1.0,500.0,1.0,20.0,3.0,10.0,0.5,0.449999988079,0.300000011921,0.15000000596,0.40000000596,0,48,0,362.449890137,151.632614136,152.372344971,58.7039070129,29.3519535065
"1,69694914848033E+018",robot1,1,0,1.0,500.0,1.0,20.0,3.0,10.0,0.5,0.449999988079,0.300000011921,0.15000000596,0.40000000596,0,115,0,473.000946045,225.70135498,188.019561768,60.7531356812,30.3765678406
"1,69694914981457E+018",robot0,1,0,1.0,500.0,1.0,20.0,3.0,10.0,0.5,0.449999988079,0.300000011921,0.15000000596,0.40000000596,0,87,0,474.299560547,215.97567749,194.718856812,60.7514266968,30.3757133484
%time,field.robot_name,field.ALGOR,field.Stop_AND_Wait,field.W1,field.W2,field.time_step,field.time_horizon,field.sphere_radius,field.CRIT_DIST,field.DES_VEL,field.ROT_VEL,field.K_ROT_MAX,field.K_ROT_MIN,field.AZIMUTH_ERROR,field.robot_stuck,field.avoided_collisions,field.fatal_collisions,field.navigation_time,field.CA_time,field.distance_travelled,field.optimal_time,field.optimal_distance_travelled
"1,69694960128237E+018",robot2,1,0,1.0,0.5,1.0,20.0,3.0,10.0,0.5,0.449999988079,0.300000011921,0.15000000596,0.20000000298,0,48,0,310.951904297,153.244888306,124.294448853,58.4979667664,29.2489833832
"1,69694961498906E+018",robot1,1,0,1.0,0.5,1.0,20.0,3.0,10.0,0.5,0.449999988079,0.300000011921,0.15000000596,0.20000000298,0,58,0,324.702362061,175.545547485,143.332733154,49.2963294983,24.6481647491
"1,69694961792354E+018",robot0,1,0,1.0,0.5,1.0,20.0,3.0,10.0,0.5,0.449999988079,0.300000011921,0.15000000596,0.20000000298,0,46,0,327.599334717,180.060012817,106.825523376,60.502746582,30.251373291
"1,69694963870826E+018",robot3,1,0,1.0,0.5,1.0,20.0,3.0,10.0,0.5,0.449999988079,0.300000011921,0.15000000596,0.20000000298,0,42,0,348.400238037,156.536758423,100.245758057,56.6262321472,28.3131160736
%time,field.robot_name,field.ALGOR,field.Stop_AND_Wait,field.W1,field.W2,field.time_step,field.time_horizon,field.sphere_radius,field.CRIT_DIST,field.DES_VEL,field.ROT_VEL,field.K_ROT_MAX,field.K_ROT_MIN,field.AZIMUTH_ERROR,field.robot_stuck,field.avoided_collisions,field.fatal_collisions,field.navigation_time,field.CA_time,field.distance_travelled,field.optimal_time,field.optimal_distance_travelled
"1,69695004088528E+018",robot2,1,0,1.0,2.5,1.0,20.0,3.0,10.0,0.5,0.449999988079,0.300000011921,0.15000000596,0.20000000298,0,55,0,283.251342773,132.777755737,120.897201538,59.1374664307,29.5687332153
"1,69695006962445E+018",robot3,1,0,1.0,2.5,1.0,20.0,3.0,10.0,0.5,0.449999988079,0.300000011921,0.15000000596,0.20000000298,0,54,0,311.950317383,122.309936523,114.794128418,56.9460601807,28.4730300903
"1,69695011992956E+018",robot0,1,0,1.0,2.5,1.0,20.0,3.0,10.0,0.5,0.449999988079,0.300000011921,0.15000000596,0.20000000298,0,68,0,362.24987793,181.41116333,140.875091553,60.6321220398,30.3160610199
"1,69695012004675E+018",robot1,1,0,1.0,2.5,1.0,20.0,3.0,10.0,0.5,0.449999988079,0.300000011921,0.15000000596,0.20000000298,0,67,0,362.414978027,179.308776855,148.2709198,49.3292922974,24.6646461487
%time,field.robot_name,field.ALGOR,field.Stop_AND_Wait,field.W1,field.W2,field.time_step,field.time_horizon,field.sphere_radius,field.CRIT_DIST,field.DES_VEL,field.ROT_VEL,field.K_ROT_MAX,field.K_ROT_MIN,field.AZIMUTH_ERROR,field.robot_stuck,field.avoided_collisions,field.fatal_collisions,field.navigation_time,field.CA_time,field.distance_travelled,field.optimal_time,field.optimal_distance_travelled
"1,69695055136118E+018",robot3,1,0,1.0,500.0,1.0,20.0,3.0,10.0,0.5,0.449999988079,0.300000011921,0.15000000596,0.20000000298,1,70,0,314.649719238,130.128158569,135.564834595,31.4621486664,15.7310743332
"1,69695055304703E+018",robot2,1,0,1.0,500.0,1.0,20.0,3.0,10.0,0.5,0.449999988079,0.300000011921,0.15000000596,0.20000000298,0,72,0,316.307739258,137.917953491,130.211837769,59.089138031,29.5445690155
"1,69695072648608E+018",robot0,1,0,1.0,500.0,1.0,20.0,3.0,10.0,0.5,0.449999988079,0.300000011921,0.15000000596,0.20000000298,0,104,0,489.746368408,224.961502075,182.89213562,60.5640258789,30.2820129395
"1,69695073675545E+018",robot1,1,0,1.0,500.0,1.0,20.0,3.0,10.0,0.5,0.449999988079,0.300000011921,0.15000000596,0.20000000298,0,102,0,499.998077393,226.154632568,191.609069824,60.496055603,30.2480278015
%time,field.robot_name,field.ALGOR,field.Stop_AND_Wait,field.W1,field.W2,field.time_step,field.time_horizon,field.sphere_radius,field.CRIT_DIST,field.DES_VEL,field.ROT_VEL,field.K_ROT_MAX,field.K_ROT_MIN,field.AZIMUTH_ERROR,field.robot_stuck,field.avoided_collisions,field.fatal_collisions,field.navigation_time,field.CA_time,field.distance_travelled,field.optimal_time,field.optimal_distance_travelled
"1,6969513719235E+018",robot1,1,0,1.0,0.5,1.0,20.0,3.0,20.0,0.5,0.449999988079,0.300000011921,0.15000000596,0.800000011921,1,76,0,493.934783936,328.148468018,233.808059692,49.3891944885,24.6945972443
"1,69695144144514E+018",robot3,1,0,1.0,0.5,1.0,20.0,3.0,20.0,0.5,0.449999988079,0.300000011921,0.15000000596,0.800000011921,1,92,0,563.45690918,377.807189941,255.220809937,56.3431968689,28.1715984344
"1,69695146806347E+018",robot2,1,0,1.0,0.5,1.0,20.0,3.0,20.0,0.5,0.449999988079,0.300000011921,0.15000000596,0.800000011921,1,95,0,590.052124023,375.288299561,266.247528076,58.9997558594,29.4998779297
"1,69695148437393E+018",robot0,1,0,1.0,0.5,1.0,20.0,3.0,20.0,0.5,0.449999988079,0.300000011921,0.15000000596,0.800000011921,1,91,0,606.348266602,407.496337891,279.123016357,60.6284294128,30.3142147064
%time,field.robot_name,field.ALGOR,field.Stop_AND_Wait,field.W1,field.W2,field.time_step,field.time_horizon,field.sphere_radius,field.CRIT_DIST,field.DES_VEL,field.ROT_VEL,field.K_ROT_MAX,field.K_ROT_MIN,field.AZIMUTH_ERROR,field.robot_stuck,field.avoided_collisions,field.fatal_collisions,field.navigation_time,field.CA_time,field.distance_travelled,field.optimal_time,field.optimal_distance_travelled
"1,69695211078885E+018",robot1,1,0,1.0,2.5,1.0,20.0,3.0,20.0,0.5,0.449999988079,0.300000011921,0.15000000596,0.800000011921,1,91,0,492.438781738,298.032012939,225.053421021,49.2412528992,24.6206264496
"1,69695218776431E+018",robot3,1,0,1.0,2.5,1.0,20.0,3.0,20.0,0.5,0.449999988079,0.300000011921,0.15000000596,0.800000011921,1,104,0,569.3984375,334.090881348,241.895248413,56.9397926331,28.4698963165
"1,69695221083835E+018",robot2,1,0,1.0,2.5,1.0,20.0,3.0,20.0,0.5,0.449999988079,0.300000011921,0.15000000596,0.800000011921,1,106,0,592.396606445,343.697631836,257.506591797,59.2395248413,29.6197624207
"1,69695222463641E+018",robot0,1,0,1.0,2.5,1.0,20.0,3.0,20.0,0.5,0.449999988079,0.300000011921,0.15000000596,0.800000011921,1,109,0,606.250488281,359.213195801,265.719055176,60.622467041,30.3112335205
%time,field.robot_name,field.ALGOR,field.Stop_AND_Wait,field.W1,field.W2,field.time_step,field.time_horizon,field.sphere_radius,field.CRIT_DIST,field.DES_VEL,field.ROT_VEL,field.K_ROT_MAX,field.K_ROT_MIN,field.AZIMUTH_ERROR,field.robot_stuck,field.avoided_collisions,field.fatal_collisions,field.navigation_time,field.CA_time,field.distance_travelled,field.optimal_time,field.optimal_distance_travelled
"1,69695285228371E+018",robot1,1,0,1.0,500.0,1.0,20.0,3.0,20.0,0.5,0.449999988079,0.300000011921,0.15000000596,0.800000011921,1,75,0,493.390014648,257.022216797,202.095169067,49.3330802917,24.6665401459
"1,69695292673828E+018",robot3,1,0,1.0,500.0,1.0,20.0,3.0,20.0,0.5,0.449999988079,0.300000011921,0.15000000596,0.800000011921,1,91,0,567.801879883,284.913330078,224.64050293,56.7757339478,28.3878669739
"1,696952948765E+018",robot2,1,0,1.0,500.0,1.0,20.0,3.0,20.0,0.5,0.449999988079,0.300000011921,0.15000000596,0.800000011921,1,95,0,589.850891113,292.560241699,233.986190796,58.9834823608,29.4917411804
"1,69695296675107E+018",robot0,1,0,1.0,500.0,1.0,20.0,3.0,20.0,0.5,0.449999988079,0.300000011921,0.15000000596,0.800000011921,1,90,0,607.80065918,305.897033691,248.003494263,60.7759971619,30.3879985809
%time,field.robot_name,field.ALGOR,field.Stop_AND_Wait,field.W1,field.W2,field.time_step,field.time_horizon,field.sphere_radius,field.CRIT_DIST,field.DES_VEL,field.ROT_VEL,field.K_ROT_MAX,field.K_ROT_MIN,field.AZIMUTH_ERROR,field.robot_stuck,field.avoided_collisions,field.fatal_collisions,field.navigation_time,field.CA_time,field.distance_travelled,field.optimal_time,field.optimal_distance_travelled
"1,69695341319573E+018",robot3,1,0,1.0,0.5,1.0,20.0,3.0,20.0,0.5,0.449999988079,0.300000011921,0.15000000596,0.600000023842,1,50,0,309.661621094,204.696472168,148.441070557,30.9587574005,15.4793787003
"1,69695369376264E+018",robot2,1,0,1.0,0.5,1.0,20.0,3.0,20.0,0.5,0.449999988079,0.300000011921,0.15000000596,0.600000023842,1,90,0,590.149475098,360.899169922,262.598297119,59.010723114,29.505361557
"1,69695370892288E+018",robot0,1,0,1.0,0.5,1.0,20.0,3.0,20.0,0.5,0.449999988079,0.300000011921,0.15000000596,0.600000023842,1,88,0,605.350219727,399.495269775,274.800079346,60.5334625244,30.2667312622
"1,69695371077805E+018",robot1,1,0,1.0,0.5,1.0,20.0,3.0,20.0,0.5,0.449999988079,0.300000011921,0.15000000596,0.600000023842,1,99,0,607.147277832,413.810028076,279.726470947,60.7144584656,30.3572292328
%time,field.robot_name,field.ALGOR,field.Stop_AND_Wait,field.W1,field.W2,field.time_step,field.time_horizon,field.sphere_radius,field.CRIT_DIST,field.DES_VEL,field.ROT_VEL,field.K_ROT_MAX,field.K_ROT_MIN,field.AZIMUTH_ERROR,field.robot_stuck,field.avoided_collisions,field.fatal_collisions,field.navigation_time,field.CA_time,field.distance_travelled,field.optimal_time,field.optimal_distance_travelled
"1,69695432879653E+018",robot1,1,0,1.0,2.5,1.0,20.0,3.0,20.0,0.5,0.449999988079,0.300000011921,0.15000000596,0.600000023842,1,91,0,491.596038818,292.039489746,223.351791382,49.1545410156,24.5772705078
"1,69695440755074E+018",robot3,1,0,1.0,2.5,1.0,20.0,3.0,20.0,0.5,0.449999988079,0.300000011921,0.15000000596,0.600000023842,1,115,0,570.299316406,334.302703857,245.330276489,57.0263175964,28.5131587982
"1,69695442847552E+018",robot2,1,0,1.0,2.5,1.0,20.0,3.0,20.0,0.5,0.449999988079,0.300000011921,0.15000000596,0.600000023842,1,117,0,591.200256348,344.255065918,255.363037109,59.1161651611,29.5580825806
"1,69695444343395E+018",robot0,1,0,1.0,2.5,1.0,20.0,3.0,20.0,0.5,0.449999988079,0.300000011921,0.15000000596,0.600000023842,1,113,0,606.1953125,363.281524658,261.325134277,60.6149368286,30.3074684143
%time,field.robot_name,field.ALGOR,field.Stop_AND_Wait,field.W1,field.W2,field.time_step,field.time_horizon,field.sphere_radius,field.CRIT_DIST,field.DES_VEL,field.ROT_VEL,field.K_ROT_MAX,field.K_ROT_MIN,field.AZIMUTH_ERROR,field.robot_stuck,field.avoided_collisions,field.fatal_collisions,field.navigation_time,field.CA_time,field.distance_travelled,field.optimal_time,field.optimal_distance_travelled
"1,6969548800558E+018",robot3,1,0,1.0,500.0,1.0,20.0,3.0,20.0,0.5,0.449999988079,0.300000011921,0.15000000596,0.600000023842,1,74,0,307.64944458,154.372802734,136.308944702,30.7617721558,15.3808860779
"1,69695516344581E+018",robot2,1,0,1.0,500.0,1.0,20.0,3.0,20.0,0.5,0.449999988079,0.300000011921,0.15000000596,0.600000023842,1,137,0,590.948547363,306.643920898,238.774017334,59.0900344849,29.5450172424
"1,69695517709995E+018",robot0,1,0,1.0,500.0,1.0,20.0,3.0,20.0,0.5,0.449999988079,0.300000011921,0.15000000596,0.600000023842,1,102,0,604.650939941,324.643035889,241.7109375,60.4612731934,30.2306365967
"1,6969551817378E+018",robot1,1,0,1.0,500.0,1.0,20.0,3.0,20.0,0.5,0.449999988079,0.300000011921,0.15000000596,0.600000023842,1,92,0,609.301025391,305.669464111,249.532714844,60.9256095886,30.4628047943
%time,field.robot_name,field.ALGOR,field.Stop_AND_Wait,field.W1,field.W2,field.time_step,field.time_horizon,field.sphere_radius,field.CRIT_DIST,field.DES_VEL,field.ROT_VEL,field.K_ROT_MAX,field.K_ROT_MIN,field.AZIMUTH_ERROR,field.robot_stuck,field.avoided_collisions,field.fatal_collisions,field.navigation_time,field.CA_time,field.distance_travelled,field.optimal_time,field.optimal_distance_travelled
"1,6969556217172E+018",robot3,1,0,1.0,0.5,1.0,20.0,3.0,20.0,0.5,0.449999988079,0.300000011921,0.15000000596,0.40000000596,1,50,0,312.799743652,203.799621582,146.312820435,31.2747745514,15.6373872757
"1,69695589351954E+018",robot2,1,0,1.0,0.5,1.0,20.0,3.0,20.0,0.5,0.449999988079,0.300000011921,0.15000000596,0.40000000596,1,96,0,584.600402832,378.462219238,253.913116455,58.4530410767,29.2265205383
"1,69695591222904E+018",robot1,1,0,1.0,0.5,1.0,20.0,3.0,20.0,0.5,0.449999988079,0.300000011921,0.15000000596,0.40000000596,1,99,0,603.297668457,403.71774292,273.131072998,60.3233184814,30.1616592407
"1,69695591734964E+018",robot0,1,0,1.0,0.5,1.0,20.0,3.0,20.0,0.5,0.449999988079,0.300000011921,0.15000000596,0.40000000596,1,99,0,608.396789551,408.789916992,277.750030518,60.839466095,30.4197330475
%time,field.robot_name,field.ALGOR,field.Stop_AND_Wait,field.W1,field.W2,field.time_step,field.time_horizon,field.sphere_radius,field.CRIT_DIST,field.DES_VEL,field.ROT_VEL,field.K_ROT_MAX,field.K_ROT_MIN,field.AZIMUTH_ERROR,field.robot_stuck,field.avoided_collisions,field.fatal_collisions,field.navigation_time,field.CA_time,field.distance_travelled,field.optimal_time,field.optimal_distance_travelled
"1,69695636532267E+018",robot3,1,0,1.0,2.5,1.0,20.0,3.0,20.0,0.5,0.449999988079,0.300000011921,0.15000000596,0.40000000596,1,67,0,313.101501465,180.683761597,145.001937866,31.3054199219,15.6527099609
"1,69695664203216E+018",robot2,1,0,1.0,2.5,1.0,20.0,3.0,20.0,0.5,0.449999988079,0.300000011921,0.15000000596,0.40000000596,1,115,0,589.79498291,347.437530518,251.120697021,58.9771194458,29.4885597229
"1,69695665693367E+018",robot1,1,0,1.0,2.5,1.0,20.0,3.0,20.0,0.5,0.449999988079,0.300000011921,0.15000000596,0.40000000596,1,126,0,604.697265625,360.569793701,259.565582275,60.4605140686,30.2302570343
"1,69695666146478E+018",robot0,1,0,1.0,2.5,1.0,20.0,3.0,20.0,0.5,0.449999988079,0.300000011921,0.15000000596,0.40000000596,1,119,0,609.151367188,369.471038818,261.197113037,60.9120254517,30.4560127258
%time,field.robot_name,field.ALGOR,field.Stop_AND_Wait,field.W1,field.W2,field.time_step,field.time_horizon,field.sphere_radius,field.CRIT_DIST,field.DES_VEL,field.ROT_VEL,field.K_ROT_MAX,field.K_ROT_MIN,field.AZIMUTH_ERROR,field.robot_stuck,field.avoided_collisions,field.fatal_collisions,field.navigation_time,field.CA_time,field.distance_travelled,field.optimal_time,field.optimal_distance_travelled
"1,69695729109472E+018",robot1,1,0,1.0,500.0,1.0,20.0,3.0,20.0,0.5,0.449999988079,0.300000011921,0.15000000596,0.40000000596,1,119,0,493.113769531,256.575622559,199.208084106,49.3068962097,24.6534481049
"1,69695736450406E+018",robot3,1,0,1.0,500.0,1.0,20.0,3.0,20.0,0.5,0.449999988079,0.300000011921,0.15000000596,0.40000000596,1,156,0,566.452392578,283.364868164,222.255783081,56.6432723999,28.3216362
"1,6969573885691E+018",robot2,1,0,1.0,500.0,1.0,20.0,3.0,20.0,0.5,0.449999988079,0.300000011921,0.15000000596,0.40000000596,1,155,0,590.557067871,298.863037109,230.403564453,59.0456085205,29.5228042603
"1,69695740417846E+018",robot0,1,0,1.0,500.0,1.0,20.0,3.0,20.0,0.5,0.449999988079,0.300000011921,0.15000000596,0.40000000596,1,154,0,606.198059082,314.219055176,240.086639404,60.6191215515,30.3095607758
%time,field.robot_name,field.ALGOR,field.Stop_AND_Wait,field.W1,field.W2,field.time_step,field.time_horizon,field.sphere_radius,field.CRIT_DIST,field.DES_VEL,field.ROT_VEL,field.K_ROT_MAX,field.K_ROT_MIN,field.AZIMUTH_ERROR,field.robot_stuck,field.avoided_collisions,field.fatal_collisions,field.navigation_time,field.CA_time,field.distance_travelled,field.optimal_time,field.optimal_distance_travelled
"1,69695802535196E+018",robot1,1,0,1.0,0.5,1.0,20.0,3.0,20.0,0.5,0.449999988079,0.300000011921,0.15000000596,0.20000000298,1,80,0,492.731536865,336.36907959,203.893814087,49.2693824768,24.6346912384
"1,69695809640921E+018",robot3,1,0,1.0,0.5,1.0,20.0,3.0,20.0,0.5,0.449999988079,0.300000011921,0.15000000596,0.20000000298,1,93,0,563.750061035,383.33102417,230.900878906,56.3743095398,28.1871547699
"1,69695812545542E+018",robot2,1,0,1.0,0.5,1.0,20.0,3.0,20.0,0.5,0.449999988079,0.300000011921,0.15000000596,0.20000000298,1,100,0,592.79901123,406.192077637,220.894699097,59.2748336792,29.6374168396
"1,69695814321361E+018",robot0,1,0,1.0,0.5,1.0,20.0,3.0,20.0,0.5,0.449999988079,0.300000011921,0.15000000596,0.20000000298,1,91,0,610.50012207,406.984008789,229.564910889,61.0475540161,30.5237770081
%time,field.robot_name,field.ALGOR,field.Stop_AND_Wait,field.W1,field.W2,field.time_step,field.time_horizon,field.sphere_radius,field.CRIT_DIST,field.DES_VEL,field.ROT_VEL,field.K_ROT_MAX,field.K_ROT_MIN,field.AZIMUTH_ERROR,field.robot_stuck,field.avoided_collisions,field.fatal_collisions,field.navigation_time,field.CA_time,field.distance_travelled,field.optimal_time,field.optimal_distance_travelled
"1,69695859985495E+018",robot3,1,0,1.0,2.5,1.0,20.0,3.0,20.0,0.5,0.449999988079,0.300000011921,0.15000000596,0.20000000298,1,36,0,315.960906982,187.542953491,82.9624404907,31.5900497437,15.7950248718
"1,69695887359155E+018",robot2,1,0,1.0,2.5,1.0,20.0,3.0,20.0,0.5,0.449999988079,0.300000011921,0.15000000596,0.20000000298,1,68,0,589.649291992,358.513275146,125.618240356,58.9646224976,29.4823112488
"1,69695888900867E+018",robot1,1,0,1.0,2.5,1.0,20.0,3.0,20.0,0.5,0.449999988079,0.300000011921,0.15000000596,0.20000000298,1,67,0,605.100036621,362.720611572,129.583450317,60.5095062256,30.2547531128
"1,6969588900049E+018",robot0,1,0,1.0,2.5,1.0,20.0,3.0,20.0,0.5,0.449999988079,0.300000011921,0.15000000596,0.20000000298,1,67,0,606.098449707,366.741119385,132.786239624,60.6060829163,30.3030414581
%time,field.robot_name,field.ALGOR,field.Stop_AND_Wait,field.W1,field.W2,field.time_step,field.time_horizon,field.sphere_radius,field.CRIT_DIST,field.DES_VEL,field.ROT_VEL,field.K_ROT_MAX,field.K_ROT_MIN,field.AZIMUTH_ERROR,field.robot_stuck,field.avoided_collisions,field.fatal_collisions,field.navigation_time,field.CA_time,field.distance_travelled,field.optimal_time,field.optimal_distance_travelled
"1,69695951469935E+018",robot1,1,0,1.0,500.0,1.0,20.0,3.0,20.0,0.5,0.449999988079,0.300000011921,0.15000000596,0.20000000298,1,141,0,493.073913574,265.506134033,201.79675293,49.305015564,24.652507782
"1,69695959024513E+018",robot3,1,0,1.0,500.0,1.0,20.0,3.0,20.0,0.5,0.449999988079,0.300000011921,0.15000000596,0.20000000298,1,160,0,568.600158691,296.02545166,218.662277222,56.8569641113,28.4284820557
"1,69695961411663E+018",robot2,1,0,1.0,500.0,1.0,20.0,3.0,20.0,0.5,0.449999988079,0.300000011921,0.15000000596,0.20000000298,1,171,0,592.453674316,314.142883301,218.475494385,59.2439155579,29.6219577789
"1,69695962721748E+018",robot0,1,0,1.0,500.0,1.0,20.0,3.0,20.0,0.5,0.449999988079,0.300000011921,0.15000000596,0.20000000298,1,163,0,605.554870605,309.606231689,217.973052979,60.5517349243,30.2758674622
%time,field.robot_name,field.ALGOR,field.Stop_AND_Wait,field.W1,field.W2,field.time_step,field.time_horizon,field.sphere_radius,field.CRIT_DIST,field.DES_VEL,field.ROT_VEL,field.K_ROT_MAX,field.K_ROT_MIN,field.AZIMUTH_ERROR,field.robot_stuck,field.avoided_collisions,field.fatal_collisions,field.navigation_time,field.CA_time,field.distance_travelled,field.optimal_time,field.optimal_distance_travelled
"1,69701584762574E+018",robot2,2,0,1.0,0.5,1.0,20.0,3.0,6.0,0.5,0.449999988079,0.300000011921,0.15000000596,0.800000011921,0,4,0,74.7495727539,19.1516418457,30.5122451782,58.8262138367,29.4131069183
"1,69701584986763E+018",robot3,2,0,1.0,0.5,1.0,20.0,3.0,6.0,0.5,0.449999988079,0.300000011921,0.15000000596,0.800000011921,0,6,0,76.9999389648,18.5912399292,30.2237033844,56.912525177,28.4562625885
"1,69701584993569E+018",robot0,2,0,1.0,0.5,1.0,20.0,3.0,6.0,0.5,0.449999988079,0.300000011921,0.15000000596,0.800000011921,0,3,0,77.0914230347,17.8473091125,33.3012542725,60.5540847778,30.2770423889
"1,69701585848748E+018",robot1,2,0,1.0,0.5,1.0,20.0,3.0,6.0,0.5,0.449999988079,0.300000011921,0.15000000596,0.800000011921,0,6,0,85.6912307739,27.7175426483,43.8609809875,49.3663520813,24.6831760406
%time,field.robot_name,field.ALGOR,field.Stop_AND_Wait,field.W1,field.W2,field.time_step,field.time_horizon,field.sphere_radius,field.CRIT_DIST,field.DES_VEL,field.ROT_VEL,field.K_ROT_MAX,field.K_ROT_MIN,field.AZIMUTH_ERROR,field.robot_stuck,field.avoided_collisions,field.fatal_collisions,field.navigation_time,field.CA_time,field.distance_travelled,field.optimal_time,field.optimal_distance_travelled
"1,69701602272101E+018",robot2,2,0,1.0,0.5,0.5,20.0,3.0,6.0,0.5,0.449999988079,0.300000011921,0.15000000596,0.800000011921,0,6,0,80.051109314,13.8006687164,34.3888168335,59.1066894531,29.5533447266
"1,69701602276433E+018",robot0,2,0,1.0,0.5,0.5,20.0,3.0,6.0,0.5,0.449999988079,0.300000011921,0.15000000596,0.800000011921,0,7,0,80.1032867432,12.7939605713,34.4219093323,60.6864509583,30.3432254791
"1,69701602465898E+018",robot3,2,0,1.0,0.5,0.5,20.0,3.0,6.0,0.5,0.449999988079,0.300000011921,0.15000000596,0.800000011921,0,6,0,81.9998016357,18.3897724152,30.8062458038,56.9161338806,28.4580669403
"1,69701602586697E+018",robot1,2,0,1.0,0.5,0.5,20.0,3.0,6.0,0.5,0.449999988079,0.300000011921,0.15000000596,0.800000011921,0,8,0,83.2341842651,20.0569496155,43.3147850037,49.2896461487,24.6448230743
%time,field.robot_name,field.ALGOR,field.Stop_AND_Wait,field.W1,field.W2,field.time_step,field.time_horizon,field.sphere_radius,field.CRIT_DIST,field.DES_VEL,field.ROT_VEL,field.K_ROT_MAX,field.K_ROT_MIN,field.AZIMUTH_ERROR,field.robot_stuck,field.avoided_collisions,field.fatal_collisions,field.navigation_time,field.CA_time,field.distance_travelled,field.optimal_time,field.optimal_distance_travelled
"1,69701620355662E+018",robot0,2,0,1.0,0.5,0.10000000149,20.0,3.0,6.0,0.5,0.449999988079,0.300000011921,0.15000000596,0.800000011921,0,8,0,82.3518066406,14.691163063,35.0834693909,60.6065788269,30.3032894135
"1,69701622082736E+018",robot2,2,0,1.0,0.5,0.10000000149,20.0,3.0,6.0,0.5,0.449999988079,0.300000011921,0.15000000596,0.800000011921,0,8,0,99.5951766968,22.0002861023,41.8225708008,58.8033485413,29.4016742706
"1,69701622429067E+018",robot1,2,0,1.0,0.5,0.10000000149,20.0,3.0,6.0,0.5,0.449999988079,0.300000011921,0.15000000596,0.800000011921,0,9,0,103.091629028,26.2284946442,50.0376243591,49.1355667114,24.5677833557
